{
"type": "FeatureCollection",
"name": "testNodes",
"crs": { "type": "name", "properties": { "name": "urn:ogc:def:crs:OGC:1.3:CRS84" } },
"features": [
{ "type": "Feature", "properties": { "id": 1, "Label": "Univeristy Cresent Crossing", "LinkedTo": "2,19" }, "geometry": { "type": "Point", "coordinates": [ -1.39615, 50.93691 ] } },
{ "type": "Feature", "properties": { "id": 2, "Label": "Univeristy Road Traffic Lights Nightingale-EEE", "LinkedTo": "1,5,19,20" }, "geometry": { "type": "Point", "coordinates": [ -1.39627, 50.936696 ] } },
{ "type": "Feature", "properties": { "id": 3, "Label": "Buliding 2 South Stairs", "LinkedTo": "4,14,24,28,29" }, "geometry": { "type": "Point", "coordinates": [ -1.39819, 50.93574 ] } },
{ "type": "Feature", "properties": { "id": 4, "Label": "Building 4 South East Corner", "LinkedTo": "3,9,23" }, "geometry": { "type": "Point", "coordinates": [ -1.39780, 50.93564 ] } },
{ "type": "Feature", "properties": { "id": 5, "Label": "Univeristy Road Interchange Crossing East", "LinkedTo": "2,6,7" }, "geometry": { "type": "Point", "coordinates": [ -1.39635, 50.93611 ] } },
{ "type": "Feature", "properties": { "id": 6, "Label": "Univeristy Road Interchange Crossing West", "LinkedTo": "5,7,8,13" }, "geometry": { "type": "Point", "coordinates": [ -1.39660, 50.93604 ] } },
{ "type": "Feature", "properties": { "id": 7, "Label": "Univserity Road Crossing North of Library", "LinkedTo": "5,6,8" }, "geometry": { "type": "Point", "coordinates": [ -1.39607, 50.93557 ] } },
{ "type": "Feature", "properties": { "id": 8, "Label": "Nuffeild South East Corner", "LinkedTo": "6,7,9" }, "geometry": { "type": "Point", "coordinates": [ -1.396905, 50.93566 ] } },
{ "type": "Feature", "properties": { "id": 9, "Label": "Nuffield South West Corner", "LinkedTo": "4,8,22,23" }, "geometry": { "type": "Point", "coordinates": [ -1.39763, 50.93584 ] } },
{ "type": "Feature", "properties": { "id": 13, "Label": "Interchange South West", "LinkedTo": "6,14,21,26" }, "geometry": { "type": "Point", "coordinates": [ -1.39737, 50.93625 ] } },
{ "type": "Feature", "properties": { "id": 14, "Label": "Between Building 2 and 2A", "LinkedTo": "3,13,24,25,27" }, "geometry": { "type": "Point", "coordinates": [ -1.39780, 50.93636 ] } },
{ "type": "Feature", "properties": { "id": 15, "Label": "Buliding 32 South entrance", "LinkedTo": "" }, "geometry": { "type": "Point", "coordinates": [ -1.39594, 50.93606 ] } },
{ "type": "Feature", "properties": { "id": 16, "Label": "Buliding 32 Back entrance", "LinkedTo": "" }, "geometry": { "type": "Point", "coordinates": [ -1.39574, 50.93641 ] } },
{ "type": "Feature", "properties": { "id": 17, "Label": "Buliding 85 Latte's entrance", "LinkedTo": "" }, "geometry": { "type": "Point", "coordinates": [ -1.39561, 50.9364 ] } },
{ "type": "Feature", "properties": { "id": 18, "Label": "Buliding 85 Reception entrance", "LinkedTo": "" }, "geometry": { "type": "Point", "coordinates": [ -1.39505, 50.93616 ] } },
{ "type": "Feature", "properties": { "id": 19, "Label": "Buliding 32 North entrance", "LinkedTo": "1,2" }, "geometry": { "type": "Point", "coordinates": [ -1.39607, 50.9368 ] } },
{ "type": "Feature", "properties": { "id": 20, "Label": "Buliding 67 Reception entrance", "LinkedTo": "2" }, "geometry": { "type": "Point", "coordinates": [ -1.39648, 50.93674 ] } },
{ "type": "Feature", "properties": { "id": 21, "Label": "Buliding 6 Interchange entrance", "LinkedTo": "13" }, "geometry": { "type": "Point", "coordinates": [ -1.39745, 50.93613 ] } },
{ "type": "Feature", "properties": { "id": 22, "Label": "Buliding 6 Obelisk entrance", "LinkedTo": "9" }, "geometry": { "type": "Point", "coordinates": [ -1.39755, 50.93596 ] } },
{ "type": "Feature", "properties": { "id": 23, "Label": "Buliding 4 Obelisk entrance", "LinkedTo": "4,9" }, "geometry": { "type": "Point", "coordinates": [ -1.39778, 50.93581 ] } },
{ "type": "Feature", "properties": { "id": 24, "Label": "Buliding 6 Kitchen entrance", "LinkedTo": "3,14,28" }, "geometry": { "type": "Point", "coordinates": [ -1.39786, 50.93612 ] } },
{ "type": "Feature", "properties": { "id": 25, "Label": "Buliding 2A Main entrance", "LinkedTo": "14" }, "geometry": { "type": "Point", "coordinates": [ -1.39772, 50.93642 ] } },
{ "type": "Feature", "properties": { "id": 26, "Label": "Buliding 2A Interchange entrance", "LinkedTo": "13" }, "geometry": { "type": "Point", "coordinates": [ -1.39741, 50.93632 ] } },
{ "type": "Feature", "properties": { "id": 27, "Label": "Buliding 2 Management entrance", "LinkedTo": "14" }, "geometry": { "type": "Point", "coordinates": [ -1.39787, 50.93645 ] } },
{ "type": "Feature", "properties": { "id": 28, "Label": "Buliding 2 Music entrance", "LinkedTo": "3,24" }, "geometry": { "type": "Point", "coordinates": [ -1.39818, 50.93602 ] } },
{ "type": "Feature", "properties": { "id": 29, "Label": "Buliding 2 Lower ground entrance", "LinkedTo": "3" }, "geometry": { "type": "Point", "coordinates": [ -1.39822, 50.93582 ] } },
{ "type": "Feature", "properties": { "id": 30, "Label": "Buliding 58 Car park entrance", "LinkedTo": "" }, "geometry": { "type": "Point", "coordinates": [ -1.39895, 50.9365 ] } },
{ "type": "Feature", "properties": { "id": 31, "Label": "Buliding 58 Salisbury Road entrance", "LinkedTo": "" }, "geometry": { "type": "Point", "coordinates": [ -1.39849, 50.93676 ] } },
{ "type": "Feature", "properties": { "id": 32, "Label": "Buliding 58 Side entrance", "LinkedTo": "" }, "geometry": { "type": "Point", "coordinates": [ -1.39902, 50.93666 ] } },
{ "type": "Feature", "properties": { "id": 33, "Label": "Buliding 58 ISS Computer Workstations entrance", "LinkedTo": "" }, "geometry": { "type": "Point", "coordinates": [ -1.39834, 50.93645 ] } },
{ "type": "Feature", "properties": { "id": 34, "Label": "Buliding 54 Car park entrance", "LinkedTo": "" }, "geometry": { "type": "Point", "coordinates": [ -1.39899, 50.9363 ] } },
{ "type": "Feature", "properties": { "id": 35, "Label": "Buliding 53 Salisbury road entrance", "LinkedTo": "" }, "geometry": { "type": "Point", "coordinates": [ -1.39805, 50.93743 ] } },
{ "type": "Feature", "properties": { "id": 36, "Label": "Buliding 53 Banks entrance", "LinkedTo": "" }, "geometry": { "type": "Point", "coordinates": [ -1.39799, 50.93755 ] } },
{ "type": "Feature", "properties": { "id": 37, "Label": "Buliding 59 Side entrance", "LinkedTo": "" }, "geometry": { "type": "Point", "coordinates": [ -1.39771, 50.93713 ] } },
{ "type": "Feature", "properties": { "id": 38, "Label": "Buliding 42 Concourse entrance", "LinkedTo": "" }, "geometry": { "type": "Point", "coordinates": [ -1.39741, 50.93443 ] } },
{ "type": "Feature", "properties": { "id": 39, "Label": "Buliding 42 Piazz@soton", "LinkedTo": "" }, "geometry": { "type": "Point", "coordinates": [ -1.39724, 50.93443 ] } },
{ "type": "Feature", "properties": { "id": 40, "Label": "Buliding 42 Piazz@soton (Latte's)", "LinkedTo": "" }, "geometry": { "type": "Point", "coordinates": [ -1.39696, 50.93435 ] } },
{ "type": "Feature", "properties": { "id": 41, "Label": "Buliding 42 Cafe entrance", "LinkedTo": "" }, "geometry": { "type": "Point", "coordinates": [ -1.39758, 50.93453 ] } },
{ "type": "Feature", "properties": { "id": 42, "Label": "Buliding 44 East entrance", "LinkedTo": "" }, "geometry": { "type": "Point", "coordinates": [ -1.39856, 50.93449 ] } },
{ "type": "Feature", "properties": { "id": 43, "Label": "Buliding 44 South entrance", "LinkedTo": "" }, "geometry": { "type": "Point", "coordinates": [ -1.3989207, 50.9342219 ] } },
{ "type": "Feature", "properties": { "id": 44, "Label": "Buliding 44 West entrance", "LinkedTo": "" }, "geometry": { "type": "Point", "coordinates": [ -1.39915, 50.9347 ] } },
{ "type": "Feature", "properties": { "id": 45, "Label": "Buliding 44 North entrance (iSolutions Workstation Room)", "LinkedTo": "" }, "geometry": { "type": "Point", "coordinates": [ -1.398864, 50.9348239 ] } },
{ "type": "Feature", "properties": { "id": 46, "Label": "Buliding 44 North entrance", "LinkedTo": "" }, "geometry": { "type": "Point", "coordinates": [ -1.39865, 50.93463 ] } },
{ "type": "Feature", "properties": { "id": 47, "Label": "Buliding 29 East Entrance", "LinkedTo": "" }, "geometry": { "type": "Point", "coordinates": [ -1.39383, 50.93389 ] } },
{ "type": "Feature", "properties": { "id": 48, "Label": "Buliding 29 West Entrance", "LinkedTo": "" }, "geometry": { "type": "Point", "coordinates": [ -1.39419, 50.934 ] } },
{ "type": "Feature", "properties": { "id": 49, "Label": "Buliding 30 Main Entrance", "LinkedTo": "" }, "geometry": { "type": "Point", "coordinates": [ -1.39454, 50.93413 ] } },
{ "type": "Feature", "properties": { "id": 50, "Label": "Buliding 27 Main Entrance", "LinkedTo": "" }, "geometry": { "type": "Point", "coordinates": [ -1.39405, 50.93433 ] } },
{ "type": "Feature", "properties": { "id": 51, "Label": "Buliding 27 Side Entrance", "LinkedTo": "" }, "geometry": { "type": "Point", "coordinates": [ -1.3934, 50.9345 ] } },
{ "type": "Feature", "properties": { "id": 52, "Label": "Buliding 25 Front Entrance", "LinkedTo": "" }, "geometry": { "type": "Point", "coordinates": [ -1.39318, 50.93472 ] } },
{ "type": "Feature", "properties": { "id": 53, "Label": "Buliding 25 Back Entrance", "LinkedTo": "" }, "geometry": { "type": "Point", "coordinates": [ -1.39364, 50.93487 ] } },
{ "type": "Feature", "properties": { "id": 54, "Label": "Buliding 25 Design Studio Entrance", "LinkedTo": "" }, "geometry": { "type": "Point", "coordinates": [ -1.39338, 50.93472 ] } },
{ "type": "Feature", "properties": { "id": 55, "Label": "Buliding 25 Cryogenics Entrance", "LinkedTo": "" }, "geometry": { "type": "Point", "coordinates": [ -1.39315, 50.9349 ] } },
{ "type": "Feature", "properties": { "id": 56, "Label": "Buliding 7 Main Entrance", "LinkedTo": "" }, "geometry": { "type": "Point", "coordinates": [ -1.39388, 50.93523 ] } },
{ "type": "Feature", "properties": { "id": 57, "Label": "Buliding 7 Stairwell Entrance", "LinkedTo": "" }, "geometry": { "type": "Point", "coordinates": [ -1.39451, 50.93549 ] } },
{ "type": "Feature", "properties": { "id": 58, "Label": "Buliding 54 Level 4 Entrance", "LinkedTo": "" }, "geometry": { "type": "Point", "coordinates": [ -1.39871, 50.93605 ] } },
{ "type": "Feature", "properties": { "id": 59, "Label": "Buliding 56 Main Entrance", "LinkedTo": "" }, "geometry": { "type": "Point", "coordinates": [ -1.39863, 50.93612 ] } },
{ "type": "Feature", "properties": { "id": 60, "Label": "Buliding 60 Offices Entrance", "LinkedTo": "" }, "geometry": { "type": "Point", "coordinates": [ -1.39818, 50.93766 ] } },
{ "type": "Feature", "properties": { "id": 61, "Label": "Buliding 60 Residents Entrance", "LinkedTo": "" }, "geometry": { "type": "Point", "coordinates": [ -1.39695, 50.93777 ] } },
{ "type": "Feature", "properties": { "id": 62, "Label": "Buliding 176 Main Entrance", "LinkedTo": "" }, "geometry": { "type": "Point", "coordinates": [ -1.40492, 50.9368 ] } },
{ "type": "Feature", "properties": { "id": 63, "Label": "Buliding 176 Lower ground entrance", "LinkedTo": "" }, "geometry": { "type": "Point", "coordinates": [ -1.40455, 50.93684 ] } },
{ "type": "Feature", "properties": { "id": 64, "Label": "Buliding 40 Main", "LinkedTo": "" }, "geometry": { "type": "Point", "coordinates": [ -1.39721, 50.93479 ] } },
{ "type": "Feature", "properties": { "id": 65, "Label": "Buliding 40 Stags", "LinkedTo": "" }, "geometry": { "type": "Point", "coordinates": [ -1.39734, 50.93459 ] } },
{ "type": "Feature", "properties": { "id": 66, "Label": "Buliding 57 Union Shop", "LinkedTo": "" }, "geometry": { "type": "Point", "coordinates": [ -1.39694, 50.93445 ] } },
{ "type": "Feature", "properties": { "id": 67, "Label": "Buliding 18 Main", "LinkedTo": "" }, "geometry": { "type": "Point", "coordinates": [ -1.39634, 50.93406 ] } },
{ "type": "Feature", "properties": { "id": 68, "Label": "Buliding 1107 Main", "LinkedTo": "" }, "geometry": { "type": "Point", "coordinates": [ -1.3961, 50.93365 ] } },
{ "type": "Feature", "properties": { "id": 69, "Label": "Buliding 1106 Main", "LinkedTo": "" }, "geometry": { "type": "Point", "coordinates": [ -1.39609, 50.93358 ] } },
{ "type": "Feature", "properties": { "id": 70, "Label": "Buliding 1105 Main", "LinkedTo": "" }, "geometry": { "type": "Point", "coordinates": [ -1.39603, 50.93353 ] } },
{ "type": "Feature", "properties": { "id": 71, "Label": "Buliding 1104 Chaplaincy Main", "LinkedTo": "" }, "geometry": { "type": "Point", "coordinates": [ -1.39596, 50.93344 ] } },
{ "type": "Feature", "properties": { "id": 72, "Label": "Buliding 1101 Front", "LinkedTo": "" }, "geometry": { "type": "Point", "coordinates": [ -1.39583, 50.93314 ] } },
{ "type": "Feature", "properties": { "id": 73, "Label": "Buliding 1101 Main", "LinkedTo": "" }, "geometry": { "type": "Point", "coordinates": [ -1.39602, 50.93301 ] } },
{ "type": "Feature", "properties": { "id": 74, "Label": "Buliding 1050 Main", "LinkedTo": "" }, "geometry": { "type": "Point", "coordinates": [ -1.39538, 50.93316 ] } },
{ "type": "Feature", "properties": { "id": 75, "Label": "Buliding 1051 Main", "LinkedTo": "" }, "geometry": { "type": "Point", "coordinates": [ -1.39541, 50.93327 ] } },
{ "type": "Feature", "properties": { "id": 76, "Label": "Buliding 1102 Main", "LinkedTo": "" }, "geometry": { "type": "Point", "coordinates": [ -1.39589, 50.93337 ] } },
{ "type": "Feature", "properties": { "id": 77, "Label": "Buliding 41 Main", "LinkedTo": "" }, "geometry": { "type": "Point", "coordinates": [ -1.39545, 50.93353 ] } },
{ "type": "Feature", "properties": { "id": 78, "Label": "Buliding 37 Main", "LinkedTo": "" }, "geometry": { "type": "Point", "coordinates": [ -1.39598, 50.93412 ] } },
{ "type": "Feature", "properties": { "id": 79, "Label": "Buliding 37 Staff North-West", "LinkedTo": "" }, "geometry": { "type": "Point", "coordinates": [ -1.39575, 50.93431 ] } },
{ "type": "Feature", "properties": { "id": 80, "Label": "Buliding 37 Staff North-East", "LinkedTo": "" }, "geometry": { "type": "Point", "coordinates": [ -1.39541, 50.93421 ] } },
{ "type": "Feature", "properties": { "id": 81, "Label": "Buliding 35 Staff", "LinkedTo": "" }, "geometry": { "type": "Point", "coordinates": [ -1.39505, 50.93407 ] } },
{ "type": "Feature", "properties": { "id": 82, "Label": "Buliding 35 Maintenance (Unlocked)", "LinkedTo": "" }, "geometry": { "type": "Point", "coordinates": [ -1.39468, 50.93373 ] } },
{ "type": "Feature", "properties": { "id": 83, "Label": "Buliding 35 Stairwell", "LinkedTo": "" }, "geometry": { "type": "Point", "coordinates": [ -1.39458, 50.93362 ] } },
{ "type": "Feature", "properties": { "id": 84, "Label": "Buliding 63A Main", "LinkedTo": "" }, "geometry": { "type": "Point", "coordinates": [ -1.30954, 51.066 ] } },
{ "type": "Feature", "properties": { "id": 85, "Label": "Buliding 63K Main", "LinkedTo": "" }, "geometry": { "type": "Point", "coordinates": [ -1.31037, 51.06589 ] } },
{ "type": "Feature", "properties": { "id": 86, "Label": "Buliding 63L Main", "LinkedTo": "" }, "geometry": { "type": "Point", "coordinates": [ -1.31015, 51.06631 ] } },
{ "type": "Feature", "properties": { "id": 87, "Label": "Buliding 63F Main", "LinkedTo": "" }, "geometry": { "type": "Point", "coordinates": [ -1.30995, 51.0656 ] } },
{ "type": "Feature", "properties": { "id": 88, "Label": "Buliding 63F Side", "LinkedTo": "" }, "geometry": { "type": "Point", "coordinates": [ -1.31002, 51.06569 ] } },
{ "type": "Feature", "properties": { "id": 89, "Label": "Buliding 63F Student Office", "LinkedTo": "" }, "geometry": { "type": "Point", "coordinates": [ -1.30949, 51.06558 ] } },
{ "type": "Feature", "properties": { "id": 90, "Label": "Buliding 63G Main", "LinkedTo": "" }, "geometry": { "type": "Point", "coordinates": [ -1.31009, 51.06547 ] } },
{ "type": "Feature", "properties": { "id": 91, "Label": "Buliding 1730 Reception", "LinkedTo": "" }, "geometry": { "type": "Point", "coordinates": [ -1.30013, 51.06879 ] } },
{ "type": "Feature", "properties": { "id": 92, "Label": "Buliding 1730 Laundry", "LinkedTo": "" }, "geometry": { "type": "Point", "coordinates": [ -1.3, 51.06882 ] } },
{ "type": "Feature", "properties": { "id": 93, "Label": "Buliding 63A Rotunda", "LinkedTo": "" }, "geometry": { "type": "Point", "coordinates": [ -1.30951, 51.06615 ] } },
{ "type": "Feature", "properties": { "id": 94, "Label": "Buliding 63A Creative Services Centre", "LinkedTo": "" }, "geometry": { "type": "Point", "coordinates": [ -1.30906, 51.06556 ] } },
{ "type": "Feature", "properties": { "id": 95, "Label": "Buliding 63A Rear", "LinkedTo": "" }, "geometry": { "type": "Point", "coordinates": [ -1.30939, 51.06593 ] } },
{ "type": "Feature", "properties": { "id": 96, "Label": "Buliding 65 West", "LinkedTo": "" }, "geometry": { "type": "Point", "coordinates": [ -1.4033, 50.9294 ] } },
{ "type": "Feature", "properties": { "id": 97, "Label": "Buliding 65 North", "LinkedTo": "" }, "geometry": { "type": "Point", "coordinates": [ -1.4021, 50.92924 ] } },
{ "type": "Feature", "properties": { "id": 98, "Label": "Buliding 65 East", "LinkedTo": "" }, "geometry": { "type": "Point", "coordinates": [ -1.40228, 50.92909 ] } },
{ "type": "Feature", "properties": { "id": 99, "Label": "Buliding 65 South", "LinkedTo": "" }, "geometry": { "type": "Point", "coordinates": [ -1.40248, 50.9289 ] } },
{ "type": "Feature", "properties": { "id": 100, "Label": "Buliding 65A Main", "LinkedTo": "" }, "geometry": { "type": "Point", "coordinates": [ -1.40303, 50.9287 ] } },
{ "type": "Feature", "properties": { "id": 101, "Label": "Buliding 65A South", "LinkedTo": "" }, "geometry": { "type": "Point", "coordinates": [ -1.40318, 50.92862 ] } },
{ "type": "Feature", "properties": { "id": 102, "Label": "Buliding 65 South ID Locked", "LinkedTo": "" }, "geometry": { "type": "Point", "coordinates": [ -1.40282, 50.92841 ] } }
]
}
